Γεωγραφικό Διαμέρισμα,Περιφέρεια,county_normalized,county,county_en,pop_11,deaths,deaths_100k,cases,cases_100k,case_fatality%,mortality%,lat,lng,uid
Μακεδονία,Περιφέρεια Κεντρικής Μακεδονίας,ΠΕΛΛΑΣ,Π.Ε. Πέλλας,Pella,139680.0,208,148.9,3960,2835.1,5.3,0.149,40.9148039,22.1430215,EL124
Μακεδονία,Περιφέρεια Ανατολικής Μακεδονίας Θράκης,ΔΡΑΜΑΣ,Π.Ε. Δράμας,Drama,98287.0,140,142.4,2741,2788.8,5.1,0.142,41.1502273,24.1469489,EL114
Μακεδονία,Περιφέρεια Κεντρικής Μακεδονίας,ΠΙΕΡΙΑΣ,Π.Ε. Πιερίας,Pieria,126698.0,148,116.8,2782,2195.8,5.3,0.117,40.2669099,22.4768287,EL125
Μακεδονία,Περιφέρεια Κεντρικής Μακεδονίας,ΣΕΡΡΩΝ,Π.Ε. Σερρών,Serres,176430.0,184,104.3,3265,1850.6,5.6,0.104,41.0863854,23.5483819,EL126
Μακεδονία,Περιφέρεια Κεντρικής Μακεδονίας,ΚΙΛΚΙΣ,Π.Ε. Κιλκίς,Kilkis,80419.0,79,98.2,1632,2029.4,4.8,0.098,40.9937071,22.8753674,EL123
Μακεδονία,Περιφέρεια Κεντρικής Μακεδονίας,ΗΜΑΘΙΑΣ,Π.Ε. Ημαθίας,Imathia,140611.0,138,98.1,2651,1885.3,5.2,0.098,40.6060067,22.1430215,EL121
Μακεδονία,Περιφέρεια Δυτικής Μακεδονίας,ΓΡΕΒΕΝΩΝ,Π.Ε. Γρεβενών,Grevena,31757.0,31,97.6,604,1901.9,5.1,0.098,40.0837626,21.4273299,EL131
Μακεδονία,Περιφέρεια Ανατολικής Μακεδονίας Θράκης,ΚΑΒΑΛΑΣ,Ν. Καβάλας,Kavala,138687.0,96,69.2,1910,1377.2,5.0,0.069,40.937607,24.412866,EL115
Μακεδονία,Περιφέρεια Κεντρικής Μακεδονίας,ΘΕΣΣΑΛΟΝΙΚΗΣ,Π.Ε. Θεσσαλονίκης,Thessaloniki,1110551.0,750,67.5,26443,2381.1,2.8,0.068,40.6400629,22.9444191,EL122
Μακεδονία,Περιφέρεια Δυτικής Μακεδονίας,ΦΛΩΡΙΝΑΣ,Π.Ε. Φλώρινας,Florina,51414.0,31,60.3,968,1882.8,3.2,0.060,40.7845262,21.4131222,EL134
Μακεδονία,Περιφέρεια Δυτικής Μακεδονίας,ΚΑΣΤΟΡΙΑΣ,Π.Ε. Καστοριάς,Kastoria,50322.0,30,59.6,755,1500.3,4.0,0.060,40.5192691,21.2687171,EL132
Μακεδονία,Περιφέρεια Κεντρικής Μακεδονίας,ΧΑΛΚΙΔΙΚΗΣ,Π.Ε. Χαλκιδικής,Chalkidiki,107719.0,60,55.7,1737,1612.5,3.5,0.056,40.3694997,23.287085,EL127
Θράκη,Περιφέρεια Ανατολικής Μακεδονίας Θράκης,ΞΑΝΘΗΣ,Π.Ε. Ξάνθης,Xanthi,111222.0,60,53.9,1991,1790.1,3.0,0.054,41.1362513,24.8877024,EL112
Θεσσαλία,Περιφέρεια Θεσσαλίας,ΛΑΡΙΣΑΣ,Π.Ε. Λαρίσης,Larissa,284325.0,122,42.9,5343,1879.2,2.3,0.043,39.6390224,22.4191254,EL142
Θεσσαλία,Περιφέρεια Θεσσαλίας,ΜΑΓΝΗΣΙΑΣ,Ν. Μαγνησίας,Magnesia,203808.0,80,39.3,2330,1143.2,3.4,0.039,39.2686199,22.762883,EL143
Θεσσαλία,Περιφέρεια Θεσσαλίας,ΚΑΡΔΙΤΣΑΣ,Π.Ε. Καρδίτσας,Karditsa,113544.0,44,38.8,1556,1370.4,2.8,0.039,39.3640258,21.9214049,EL141
Θεσσαλία,Περιφέρεια Θεσσαλίας,ΤΡΙΚΑΛΩΝ,Π.Ε. Τρικάλων,Trikala,131085.0,48,36.6,1432,1092.4,3.4,0.037,39.5557317,21.7678951,EL144
Μακεδονία,Περιφέρεια Δυτικής Μακεδονίας,ΚΟΖΑΝΗΣ,Π.Ε. Κοζάνης,Kozani,150196.0,52,34.6,1917,1276.3,2.7,0.035,40.3005586,21.7887737,EL133
Θράκη,Περιφέρεια Ανατολικής Μακεδονίας Θράκης,ΕΒΡΟΥ,Π.Ε. Έβρου,Evros,147947.0,34,23.0,1830,1236.9,1.9,0.023,41.2443761,26.1359431,EL111
Θράκη,Περιφέρεια Ανατολικής Μακεδονίας Θράκης,ΡΟΔΟΠΗΣ,Π.Ε. Ροδόπης,Rhodope,112039.0,25,22.3,1721,1536.1,1.5,0.022,41.0795681,25.5681084,EL113
Ήπειρος,Περιφέρεια Ηπείρου,ΙΩΑΝΝΙΝΩΝ,Π.Ε. Ιωαννίνων,Ioannina,167901.0,31,18.5,1398,832.6,2.2,0.018,39.6650288,20.8537466,EL213
Νησιά Αιγαίου Πελάγους,Περιφέρεια Βορείου Αιγαίου,ΛΕΣΒΟΥ,Ν. Λέσβου,Lesbos,103698.0,19,18.3,1526,1471.6,1.2,0.018,39.2645095,26.2777073,EL411
Αττική,Περιφέρεια Αττικής,ΑΤΤΙΚΗΣ,Περιφέρεια Αττικής,Attica,3828434.0,659,17.2,32239,842.1,2.0,0.017,38.0457568,23.8584737,EL300
Ήπειρος,Περιφέρεια Ηπείρου,ΠΡΕΒΕΖΑΣ,Π.Ε. Πρεβέζης,Preveza,57491.0,9,15.7,184,320.1,4.9,0.016,38.9592649,20.7517155,EL214
Στερεά Ελλάδα,Περιφέρεια Στερεάς Ελλάδας και Εύβοιας,ΕΥΡΥΤΑΝΙΑΣ,Π.Ε. Ευρυτανίας,Evrytania,20081.0,2,10.0,233,1160.3,0.9,0.010,39.0032334,21.7137694,EL243
Νησιά Ιονίου Πελάγους,Περιφέρεια Ιονίων Νήσων,ΚΕΡΚΥΡΑΣ,Π.Ε. Κέρκυρας,Corfu (Kerkyra),104371.0,10,9.6,451,432.1,2.2,0.010,39.6242621,19.9216777,EL222
Στερεά Ελλάδα,Περιφέρεια Δυτικής Ελλάδας,ΑΙΤΩΛΟΑΚΑΡΝΑΝΙΑΣ,Π.Ε. Αιτωλοακαρνανίας,Aetolia-Acarnania,210802.0,19,9.0,820,389.0,2.3,0.009,38.7084386,21.3798928,EL231
Στερεά Ελλάδα,Περιφέρεια Στερεάς Ελλάδας και Εύβοιας,ΦΘΙΩΤΙΔΑΣ,Π.Ε. Φθιώτιδος,Phthiotis,158231.0,14,8.8,630,398.2,2.2,0.009,38.999785,22.3337769,EL244
Νησιά Ιονίου Πελάγους,Περιφέρεια Ιονίων Νήσων,ΛΕΥΚΑΔΑΣ,Π.Ε. Λευκάδας,Lefkada,23693.0,2,8.4,46,194.2,4.3,0.008,38.7066464,20.64073,EL224
Πελοπόννησος,Περιφέρεια Πελοποννήσου,ΚΟΡΙΝΘΟΥ,Π.Ε. Κορινθίας,Corinthia,145082.0,12,8.3,539,371.5,2.2,0.008,38.0022977,22.5245093,EL253
Νησιά Ιονίου Πελάγους,Περιφέρεια Ιονίων Νήσων,ΖΑΚΥΝΘΟΥ,Π.Ε. Ζακύνθου,Zakynthos,40759.0,3,7.4,80,196.3,3.8,0.007,37.7870331,20.8998759,EL221
Πελοπόννησος,Περιφέρεια Δυτικής Ελλάδας,ΑΧΑΪΑΣ,Π.Ε. Αχαϊας,Achaea,309694.0,18,5.8,1323,427.2,1.4,0.006,38.1158729,21.9522491,EL232
Πελοπόννησος,Περιφέρεια Δυτικής Ελλάδας,ΗΛΕΙΑΣ,Π.Ε. Ηλείας,Elis,159300.0,8,5.0,403,253.0,2.0,0.005,37.7045099,21.5706786,EL233
Στερεά Ελλάδα,Περιφέρεια Στερεάς Ελλάδας και Εύβοιας,ΦΩΚΙΔΑΣ,Π.Ε. Φωκίδας,Phocis,40343.0,2,5.0,179,443.7,1.1,0.005,38.5598641,22.1430215,EL245
Ήπειρος,Περιφέρεια Ηπείρου,ΘΕΣΠΡΩΤΙΑΣ,Π.Ε. Θεσπρωτίας,Thesprotia,43587.0,2,4.6,133,305.1,1.5,0.005,39.4935011,20.3785438,EL212
Στερεά Ελλάδα,Περιφέρεια Στερεάς Ελλάδας και Εύβοιας,ΒΟΙΩΤΙΑΣ,Π.Ε. Βοιωτίας,Boeotia,117920.0,5,4.2,626,530.9,0.8,0.004,38.3663664,23.0965064,EL241
Νησιά Αιγαίου Πελάγους,Περιφέρεια Βορείου Αιγαίου,ΧΙΟΥ,Ν. Χίου,Chios,52674.0,2,3.8,276,524.0,0.7,0.004,38.3681824,26.1310056,EL413
Πελοπόννησος,Περιφέρεια Πελοποννήσου,ΜΕΣΣΗΝΙΑΣ,Π.Ε. Μεσσηνίας,Messenia,159954.0,6,3.8,628,392.6,1.0,0.004,37.1424653,21.9522491,EL255
Κρήτη,Περιφέρεια Κρήτης,ΗΡΑΚΛΕΙΟΥ,Π.Ε. Ηρακλείου,Herakleion,305490.0,11,3.6,1137,372.2,1.0,0.004,35.3387352,25.1442126,EL431
Ήπειρος,Περιφέρεια Ηπείρου,ΑΡΤΑΣ,Π.Ε. Άρτας,Arta,67877.0,2,2.9,232,341.8,0.9,0.003,39.1582421,20.9876839,EL211
Νησιά Αιγαίου Πελάγους,Περιφέρεια Νοτίου Αιγαίου,ΔΩΔΕΚΑΝΗΣΩΝ,Ν. Δωδεκανήσου,Dodecanese,190988.0,5,2.6,517,270.7,1.0,0.003,36.4029176,27.9285982,EL421
Νησιά Αιγαίου Πελάγους,Περιφέρεια Νοτίου Αιγαίου,ΚΥΚΛΑΔΩΝ,Ν. Κυκλάδων,Cyclades,118027.0,3,2.5,466,394.8,0.6,0.003,37.1548247,25.0687356,EL422
Κρήτη,Περιφέρεια Κρήτης,ΡΕΘΥΜΝΟΥ,Π.Ε. Ρεθύμνης,Rethymno,85609.0,2,2.3,223,260.5,0.9,0.002,35.3655545,24.4919838,EL433
Πελοπόννησος,Περιφέρεια Πελοποννήσου,ΑΡΚΑΔΙΑΣ,Π.Ε. Αρκαδίας,Arcadia,86685.0,2,2.3,296,341.5,0.7,0.002,37.5557825,22.3337769,EL252
Κρήτη,Περιφέρεια Κρήτης,ΧΑΝΙΩΝ,Π.Ε. Χανίων,Chania,156585.0,3,1.9,586,374.2,0.5,0.002,35.5138298,24.0180367,EL434
Στερεά Ελλάδα,Περιφέρεια Στερεάς Ελλάδας και Εύβοιας,ΕΥΒΟΙΑΣ,Π.Ε. Ευβοίας,Euboea,210815.0,3,1.4,405,192.1,0.7,0.001,38.5236036,23.8584737,EL242
Αττική,Άγιον Όρος,ΑΓΙΟ ΟΡΟΣ,Άγιο Όρος,Mount Athos,1811.0,0,0.0,5,276.1,0.0,0.000,40.2644928,24.2152731,EL128
Πελοπόννησος,Περιφέρεια Πελοποννήσου,ΑΡΓΟΛΙΔΑΣ,Π.Ε. Αργολίδας,Argolis,97044.0,0,0.0,393,405.0,0.0,0.000,37.6525404,22.858217,EL251
Νησιά Ιονίου Πελάγους,Περιφέρεια Ιονίων Νήσων,ΚΕΦΑΛΛΟΝΙΑΣ,Ν. Κεφαλληνίας,Kefalonia,39032.0,0,0.0,64,164.0,0.0,0.000,38.1753675,20.5692179,EL223
Πελοπόννησος,Περιφέρεια Πελοποννήσου,ΛΑΚΩΝΙΑΣ,Π.Ε. Λακωνίας,Laconia,89138.0,0,0.0,157,176.1,0.0,0.000,37.0299087,22.5245093,EL254
Κρήτη,Περιφέρεια Κρήτης,ΛΑΣΙΘΙΟΥ,Π.Ε. Λασιθίου,Lasithi,75381.0,0,0.0,96,127.4,0.0,0.000,35.0811693,25.7101789,EL432
Νησιά Αιγαίου Πελάγους,Περιφέρεια Βορείου Αιγαίου,ΣΑΜΟΥ,Ν. Σάμου,Samos,42859.0,0,0.0,175,408.3,0.0,0.000,37.7547857,26.9777701,EL412